<?xml version="1.0" encoding="UTF-8"?>
<kml xmlns="http://www.opengis.net/kml/2.2">
  <Folder>
    <Placemark>
      <name>Villefranche périurbain - Périurbain </name>
      <description>
        Value = 15.0
        Longitude = 4.79611
        Latitude = 45.9363
      </description>
      <Point>
        <coordinates>4.79611,45.9363,0</coordinates>
      </Point>
    </Placemark>
    <Placemark>
      <name>A7 Valence - Trafic </name>
      <description>
        Value = 21.0
        Longitude = 4.88988
        Latitude = 44.949
      </description>
      <Point>
        <coordinates>4.88988,44.949,0</coordinates>
      </Point>
    </Placemark>
    <Placemark>
      <name>Drôme provençale - Rurale nationale </name>
      <description>
        Value = 19.0
        Longitude = 4.85401
        Latitude = 44.352
      </description>
      <Point>
        <coordinates>4.85401,44.352,0</coordinates>
      </Point>
    </Placemark>
    <Placemark>
      <name>Romans Sur Isère - Urbain </name>
      <description>
        Value = 18.0
        Longitude = 5.04413
        Latitude = 45.0422
      </description>
      <Point>
        <coordinates>5.04413,45.0422,0</coordinates>
      </Point>
    </Placemark>
    <Placemark>
      <name>Valence Sud - Périurbain </name>
      <description>
        Value = 20.0
        Longitude = 4.87629
        Latitude = 44.8703
      </description>
      <Point>
        <coordinates>4.87629,44.8703,0</coordinates>
      </Point>
    </Placemark>
    <Placemark>
      <name>Annecy Loverchy - Urbain </name>
      <description>
        Value = 15.0
        Longitude = 6.11844
        Latitude = 45.8953
      </description>
      <Point>
        <coordinates>6.11844,45.8953,0</coordinates>
      </Point>
    </Placemark>
    <Placemark>
      <name>Annecy Novel - Périurbain </name>
      <description>
        Value = 10.0
        Longitude = 6.13566
        Latitude = 45.9171
      </description>
      <Point>
        <coordinates>6.13566,45.9171,0</coordinates>
      </Point>
    </Placemark>
    <Placemark>
      <name>Chamonix - Urbain </name>
      <description>
        Value = 16.0
        Longitude = 6.86993
        Latitude = 45.9226
      </description>
      <Point>
        <coordinates>6.86993,45.9226,0</coordinates>
      </Point>
    </Placemark>
    <Placemark>
      <name>Passy - Urbain </name>
      <description>
        Value = 13.0
        Longitude = 6.71364
        Latitude = 45.9235
      </description>
      <Point>
        <coordinates>6.71364,45.9235,0</coordinates>
      </Point>
    </Placemark>
    <Placemark>
      <name>A7 Nord-Isere - Trafic </name>
      <description>
        Value = 22.0
        Longitude = 4.80483
        Latitude = 45.3532
      </description>
      <Point>
        <coordinates>4.80483,45.3532,0</coordinates>
      </Point>
    </Placemark>
    <Placemark>
      <name>Est grenoblois / Grésivaudan - Périurbain </name>
      <description>
        Value = 12.0
        Longitude = 5.8824
        Latitude = 45.28
      </description>
      <Point>
        <coordinates>5.8824,45.28,0</coordinates>
      </Point>
    </Placemark>
    <Placemark>
      <name>Fontaine les Balmes - Urbain </name>
      <description>
        Value = 20.0
        Longitude = 5.68697
        Latitude = 45.1905
      </description>
      <Point>
        <coordinates>5.68697,45.1905,0</coordinates>
      </Point>
    </Placemark>
    <Placemark>
      <name>Grenoble Grands Boulevards - Trafic </name>
      <description>
        Value = 16.0
        Longitude = 5.72006
        Latitude = 45.1807
      </description>
      <Point>
        <coordinates>5.72006,45.1807,0</coordinates>
      </Point>
    </Placemark>
    <Placemark>
      <name>Grenoble les Frenes - Urbain </name>
      <description>
        Value = 24.0
        Longitude = 5.73567
        Latitude = 45.1622
      </description>
      <Point>
        <coordinates>5.73567,45.1622,0</coordinates>
      </Point>
    </Placemark>
    <Placemark>
      <name>Grenoble Rocade Sud - Trafic </name>
      <description>
        Value = 39.0
        Longitude = 5.67689
        Latitude = 45.058
      </description>
      <Point>
        <coordinates>5.67689,45.058,0</coordinates>
      </Point>
    </Placemark>
    <Placemark>
      <name>Roussillon - Urbain </name>
      <description>
        Value = 20.0
        Longitude = 4.80515
        Latitude = 45.3679
      </description>
      <Point>
        <coordinates>4.80515,45.3679,0</coordinates>
      </Point>
    </Placemark>
    <Placemark>
      <name>Saint-Martin d'Heres - Urbain </name>
      <description>
        Value = 18.0
        Longitude = 5.75325
        Latitude = 45.183
      </description>
      <Point>
        <coordinates>5.75325,45.183,0</coordinates>
      </Point>
    </Placemark>
    <Placemark>
      <name>Vienne Centre - Urbain </name>
      <description>
        Value = 22.0
        Longitude = 4.87541
        Latitude = 45.526
      </description>
      <Point>
        <coordinates>4.87541,45.526,0</coordinates>
      </Point>
    </Placemark>
    <Placemark>
      <name>Voiron Urbain - Urbain </name>
      <description>
        Value = 16.0
        Longitude = 5.58943
        Latitude = 45.3602
      </description>
      <Point>
        <coordinates>5.58943,45.3602,0</coordinates>
      </Point>
    </Placemark>
    <Placemark>
      <name>Est stéphanois / La Talaudière - Périurbain </name>
      <description>
        Value = 15.0
        Longitude = 4.4299
        Latitude = 45.4816
      </description>
      <Point>
        <coordinates>4.4299,45.4816,0</coordinates>
      </Point>
    </Placemark>
    <Placemark>
      <name>Est stéphanois / Saint-Chamond - Urbain </name>
      <description>
        Value = 8.0
        Longitude = 4.51501
        Latitude = 45.4754
      </description>
      <Point>
        <coordinates>4.51501,45.4754,0</coordinates>
      </Point>
    </Placemark>
    <Placemark>
      <name>Roanne - Urbain </name>
      <description>
        Value = 11.0
        Longitude = 4.07465
        Latitude = 46.0413
      </description>
      <Point>
        <coordinates>4.07465,46.0413,0</coordinates>
      </Point>
    </Placemark>
    <Placemark>
      <name>Saint-Etienne Nord - Périurbain </name>
      <description>
        Value = 19.0
        Longitude = 4.41278
        Latitude = 45.422
      </description>
      <Point>
        <coordinates>4.41278,45.422,0</coordinates>
      </Point>
    </Placemark>
    <Placemark>
      <name>Saint-Etienne Sud - Urbain </name>
      <description>
        Value = 26.0
        Longitude = 4.39543
        Latitude = 45.4201
      </description>
      <Point>
        <coordinates>4.39543,45.4201,0</coordinates>
      </Point>
    </Placemark>
    <Placemark>
      <name>Est lyonnais / Genas - Périurbain </name>
      <description>
        Value = 25.0
        Longitude = 4.98055
        Latitude = 45.7319
      </description>
      <Point>
        <coordinates>4.98055,45.7319,0</coordinates>
      </Point>
    </Placemark>
    <Placemark>
      <name>Est lyonnais / Saint Exupéry - Périurbain </name>
      <description>
        Value = 19.0
        Longitude = 5.0723
        Latitude = 45.7536
      </description>
      <Point>
        <coordinates>5.0723,45.7536,0</coordinates>
      </Point>
    </Placemark>
    <Placemark>
      <name>Est lyonnais / Vaulx en Velin - Urbain </name>
      <description>
        Value = 17.0
        Longitude = 4.92492
        Latitude = 45.779
      </description>
      <Point>
        <coordinates>4.92492,45.779,0</coordinates>
      </Point>
    </Placemark>
    <Placemark>
      <name>Lyon Centre - Urbain </name>
      <description>
        Value = 17.0
        Longitude = 4.85422
        Latitude = 45.7578
      </description>
      <Point>
        <coordinates>4.85422,45.7578,0</coordinates>
      </Point>
    </Placemark>
    <Placemark>
      <name>Lyon Gerland - Urbain </name>
      <description>
        Value = 18.0
        Longitude = 4.8298
        Latitude = 45.7354
      </description>
      <Point>
        <coordinates>4.8298,45.7354,0</coordinates>
      </Point>
    </Placemark>
    <Placemark>
      <name>Lyon Periphérique Est - Trafic </name>
      <description>
        Value = 26.0
        Longitude = 4.89616
        Latitude = 45.7283
      </description>
      <Point>
        <coordinates>4.89616,45.7283,0</coordinates>
      </Point>
    </Placemark>
    <Placemark>
      <name>Sud lyonnais / Feyzin ZI - Industrielle </name>
      <description>
        Value = 30.0
        Longitude = 4.85625
        Latitude = 45.6717
      </description>
      <Point>
        <coordinates>4.85625,45.6717,0</coordinates>
      </Point>
    </Placemark>
    <Placemark>
      <name>sud lyonnais / Saint-Fons - Industrielle </name>
      <description>
        Value = 21.0
        Longitude = 4.86449
        Latitude = 45.7078
      </description>
      <Point>
        <coordinates>4.86449,45.7078,0</coordinates>
      </Point>
    </Placemark>
    <Placemark>
      <name>Sud lyonnais / Ternay - Périurbain </name>
      <description>
        Value = 20.0
        Longitude = 4.80254
        Latitude = 45.6019
      </description>
      <Point>
        <coordinates>4.80254,45.6019,0</coordinates>
      </Point>
    </Placemark>
    <Placemark>
      <name>Villefranche Village - Urbain </name>
      <description>
        Value = 19.0
        Longitude = 4.71928
        Latitude = 45.9864
      </description>
      <Point>
        <coordinates>4.71928,45.9864,0</coordinates>
      </Point>
    </Placemark>
    <Placemark>
      <name>Villeurbanne Place Grandclément - Trafic </name>
      <description>
        Value = 13.0
        Longitude = 4.88622
        Latitude = 45.7584
      </description>
      <Point>
        <coordinates>4.88622,45.7584,0</coordinates>
      </Point>
    </Placemark>
    <Placemark>
      <name>Albertville - Urbain </name>
      <description>
        Value = 13.0
        Longitude = 6.3896
        Latitude = 45.6751
      </description>
      <Point>
        <coordinates>6.3896,45.6751,0</coordinates>
      </Point>
    </Placemark>
    <Placemark>
      <name>Chambéry Pasteur - Urbain </name>
      <description>
        Value = 20.0
        Longitude = 5.92844
        Latitude = 45.5646
      </description>
      <Point>
        <coordinates>5.92844,45.5646,0</coordinates>
      </Point>
    </Placemark>
    <Placemark>
      <name>Saint-Jean de Maurienne - Urbain </name>
      <description>
        Value = 12.0
        Longitude = 6.3496
        Latitude = 45.2747
      </description>
      <Point>
        <coordinates>6.3496,45.2747,0</coordinates>
      </Point>
    </Placemark>
    <GroundOverlay>
      <TimeSpan>
        <begin>0012-08-01T00:00:00Z</begin>
        <end>0012-08-01T00:59:59Z</end>
      </TimeSpan>
      <name>Overlay on terrain</name>
      <visibility>1</visibility>
      <description>Overlay</description>
      <Icon>
        <href>C:\Users\Rexxar\git\Projet-Visu\ProjetVisu\Out\particulepm10aout2012_Images\particulepm10aout2012_0.png</href>
      </Icon>
      <LatLonBox>
        <north>46.37809</north>
        <south>44.167809999999996</south>
        <east>7.149458</east>
        <west>3.795122</west>
        <rotation>-0.1556640799496235</rotation>
      </LatLonBox>
    </GroundOverlay>
  </Folder>
</kml>